{
  "name": "Boroondara Subgraph",
  "description": "Updated team subgraph built from SCATS sites that are all present in the October 2006 workbook. Coordinates are averaged from the SCATS approach records, and edges are chosen to follow the most plausible Burke, Balwyn, Canterbury, Trafalgar, Camberwell, and Harp/Doncaster road links in the Boroondara map.",
  "nodes": {
    "3120": {
      "label": "BURKE/CANTERBURY",
      "coordinates": [145.057288, -37.822895],
      "prediction_scats_ids": ["3120"]
    },
    "3122": {
      "label": "CANTERBURY/STANHOPE",
      "coordinates": [145.064393, -37.823857],
      "prediction_scats_ids": ["3122"]
    },
    "3126": {
      "label": "CANTERBURY/WARRIGAL",
      "coordinates": [145.098577, -37.827847],
      "prediction_scats_ids": ["3126"]
    },
    "3127": {
      "label": "CANTERBURY/BALWYN",
      "coordinates": [145.077947, -37.825227],
      "prediction_scats_ids": ["3127"]
    },
    "3180": {
      "label": "DONCASTER/BALWYN",
      "coordinates": [145.083507, -37.796213],
      "prediction_scats_ids": ["3180"]
    },
    "3662": {
      "label": "HIGH/PRINCESS",
      "coordinates": [145.027457, -37.808953],
      "prediction_scats_ids": ["3662"]
    },
    "3804": {
      "label": "RIVERSDALE/TRAFALGAR",
      "coordinates": [145.062392, -37.833642],
      "prediction_scats_ids": ["3804"]
    },
    "3812": {
      "label": "CAMBERWELL/TRAFALGAR",
      "coordinates": [145.060865, -37.837490],
      "prediction_scats_ids": ["3812"]
    },
    "4032": {
      "label": "BURKE/HARP",
      "coordinates": [145.061230, -37.802297],
      "prediction_scats_ids": ["4032"]
    }
  },
  "edges": [
    ["3662", "4032"],
    ["4032", "3180"],
    ["4032", "3120"],
    ["3180", "3127"],
    ["3120", "3122"],
    ["3122", "3127"],
    ["3127", "3126"],
    ["3122", "3812"],
    ["3812", "3804"]
  ]
}
